{
  "_parties": [
    {
      "id": "1",
      "name": "Marco's Geburtstag",
      "location": {
        "address": "Zirkusstrasse 87a",
        "zip": "3000",
        "city": "Bern"
      },
      "items": []
    },
    {
      "id": "2",
      "name": "Payne's Hochzeit",
      "location": {
        "address": "Kirchenweg 5",
        "zip": "4500",
        "city": "Solothurn"
      },
      "items": []
    },
    {
      "id": "3",
      "name": "Ben's Beförderung",
      "location": {
        "address": "Künstlergasse 14",
        "zip": "8000",
        "city": "Zürich"
      },
      "items": []
    },
    {
      "id": "4",
      "name": "Challenge Final Event",
      "location": {
        "address": "Poststrasse 16",
        "zip": "3000",
        "city": "Bern"
      },
      "items": []
    },
    {
      "name": "ljsadl kfjdsfkdsaf",
      "location": {},
      "items": [],
      "persons": [],
      "id": "r1Or6DyxZ"
    },
    {
      "name": "lsd fjds jfsldkfjasdlkf jsdaf",
      "location": {},
      "items": [],
      "persons": [],
      "id": "SkpyAwklb"
    },
    {
      "name": "dsfasdf asdf",
      "location": {},
      "items": [],
      "persons": [],
      "id": "ByzP0Pyg-"
    }
  ]
}